$GNGGA,074415.00,4003.276103,N,11617.783468,E,1,14,1.05,32.4,M,-8.7,M,,*
$GNGGA,074416.00,4003.275711,N,11617.783015,E,1,14,1.05,40.0,M,-8.7,M,,*
$GNGGA,074417.00,4003.275407,N,11617.782668,E,1,15,0.96,42.3,M,-8.7,M,,*
$GNGGA,074418.00,4003.275533,N,11617.782944,E,1,15,0.96,41.3,M,-8.7,M,,*
$GNGGA,074419.00,4003.275500,N,11617.783050,E,1,15,0.96,40.8,M,-8.7,M,,*
$GNGGA,074420.00,4003.275495,N,11617.783061,E,1,15,0.96,41.1,M,-8.7,M,,*
$GNGGA,074421.00,4003.275626,N,11617.783128,E,1,15,0.96,40.7,M,-8.7,M,,*
$GNGGA,074422.00,4003.275651,N,11617.783178,E,1,15,0.96,40.3,M,-8.7,M,,*
$GNGGA,074423.00,4003.275662,N,11617.783175,E,1,15,0.96,40.0,M,-8.7,M,,*
$GNGGA,074424.00,4003.275691,N,11617.783144,E,1,15,0.96,39.9,M,-8.7,M,,*
$GNGGA,074425.00,4003.275747,N,11617.783078,E,1,15,0.96,39.9,M,-8.7,M,,*
$GNGGA,074426.00,4003.275828,N,11617.782993,E,1,15,0.96,39.8,M,-8.7,M,,*
$GNGGA,074427.00,4003.275864,N,11617.782923,E,1,15,0.96,39.7,M,-8.7,M,,*
$GNGGA,074428.00,4003.275898,N,11617.782905,E,1,15,0.96,39.7,M,-8.7,M,,*
$GNGGA,074429.00,4003.275926,N,11617.782904,E,1,15,0.96,39.6,M,-8.7,M,,*
$GNGGA,074430.00,4003.275943,N,11617.782919,E,1,15,0.96,39.6,M,-8.7,M,,*
$GNGGA,074431.00,4003.275949,N,11617.782936,E,1,15,0.96,39.6,M,-8.7,M,,*
$GNGGA,074432.00,4003.275955,N,11617.782973,E,1,15,0.96,39.7,M,-8.7,M,,*
$GNGGA,074433.00,4003.275968,N,11617.782992,E,1,15,0.96,39.7,M,-8.7,M,,*
$GNGGA,074434.00,4003.275966,N,11617.783002,E,1,15,0.96,39.8,M,-8.7,M,,*
$GNGGA,074435.00,4003.275959,N,11617.783037,E,1,15,0.96,39.7,M,-8.7,M,,*
$GNGGA,074436.00,4003.275960,N,11617.783058,E,1,15,0.96,39.7,M,-8.7,M,,*
$GNGGA,074437.00,4003.275954,N,11617.783083,E,1,15,0.96,39.8,M,-8.7,M,,*
$GNGGA,074438.00,4003.275963,N,11617.783101,E,1,15,0.96,39.8,M,-8.7,M,,*
$GNGGA,074439.00,4003.275963,N,11617.783119,E,1,15,0.96,39.8,M,-8.7,M,,*
$GNGGA,074440.00,4003.275964,N,11617.783136,E,1,15,0.96,39.8,M,-8.7,M,,*
$GNGGA,074441.00,4003.275961,N,11617.783145,E,1,15,0.96,39.8,M,-8.7,M,,*
$GNGGA,074442.00,4003.275950,N,11617.783173,E,1,15,0.96,39.8,M,-8.7,M,,*
$GNGGA,074443.00,4003.275938,N,11617.783203,E,1,15,0.96,39.8,M,-8.7,M,,*
$GNGGA,074444.00,4003.276713,N,11617.782864,E,1,15,0.96,39.8,M,-8.7,M,,*
$GNGGA,074445.00,4003.275995,N,11617.783237,E,1,15,0.96,39.8,M,-8.7,M,,*
$GNGGA,074446.00,4003.275686,N,11617.783371,E,1,15,0.96,39.8,M,-8.7,M,,*
$GNGGA,074447.00,4003.275627,N,11617.783389,E,1,15,0.96,39.8,M,-8.7,M,,*
$GNGGA,074448.00,4003.275533,N,11617.783412,E,1,15,0.96,39.8,M,-8.7,M,,*
$GNGGA,074449.00,4003.275476,N,11617.783380,E,1,15,0.96,39.8,M,-8.7,M,,*
$GNGGA,074450.00,4003.275350,N,11617.783411,E,1,15,0.96,39.8,M,-8.7,M,,*
$GNGGA,074451.00,4003.274921,N,11617.783682,E,1,15,0.96,39.8,M,-8.7,M,,*
$GNGGA,074452.00,4003.274917,N,11617.783690,E,1,15,0.96,39.8,M,-8.7,M,,*
$GNGGA,074453.00,4003.274917,N,11617.783690,E,1,15,0.96,39.8,M,-8.7,M,,*
$GNGGA,074454.00,4003.274918,N,11617.783684,E,1,15,0.96,39.8,M,-8.7,M,,*
$GNGGA,074455.00,4003.274386,N,11617.783043,E,1,15,0.96,39.8,M,-8.7,M,,*
$GNGGA,074456.00,4003.274545,N,11617.783311,E,1,15,0.96,39.8,M,-8.7,M,,*
$GNGGA,074457.00,4003.274950,N,11617.783646,E,1,15,0.96,39.8,M,-8.7,M,,*
$GNGGA,074458.00,4003.275219,N,11617.783816,E,1,15,0.96,39.8,M,-8.7,M,,*
$GNGGA,074459.00,4003.275403,N,11617.783800,E,1,15,0.96,39.8,M,-8.7,M,,*
$GNGGA,074500.00,4003.275418,N,11617.783772,E,1,15,0.96,39.8,M,-8.7,M,,*
$GNGGA,074501.00,4003.275320,N,11617.783704,E,1,15,0.96,39.8,M,-8.7,M,,*
$GNGGA,074502.00,4003.275319,N,11617.783623,E,1,15,0.96,39.8,M,-8.7,M,,*
$GNGGA,074503.00,4003.275240,N,11617.783553,E,1,15,0.96,39.8,M,-8.7,M,,*
$GNGGA,074504.00,4003.275230,N,11617.783477,E,1,15,0.96,39.8,M,-8.7,M,,*
$GNGGA,074505.00,4003.275241,N,11617.783484,E,1,15,0.96,39.8,M,-8.7,M,,*
$GNGGA,074506.00,4003.275304,N,11617.783496,E,1,15,0.96,39.8,M,-8.7,M,,*
$GNGGA,074507.00,4003.275276,N,11617.783467,E,1,15,0.96,39.8,M,-8.7,M,,*
$GNGGA,074508.00,4003.275269,N,11617.783494,E,1,15,0.96,39.8,M,-8.7,M,,*
$GNGGA,074509.00,4003.275210,N,11617.783499,E,1,15,0.96,39.8,M,-8.7,M,,*
$GNGGA,074510.00,4003.275169,N,11617.783491,E,1,15,0.96,39.8,M,-8.7,M,,*
$GNGGA,074511.00,4003.275129,N,11617.783460,E,1,15,0.96,39.8,M,-8.7,M,,*
$GNGGA,074512.00,4003.275099,N,11617.783487,E,1,15,0.96,39.8,M,-8.7,M,,*
$GNGGA,074513.00,4003.275046,N,11617.783489,E,1,15,0.96,39.8,M,-8.7,M,,*
$GNGGA,074514.00,4003.274986,N,11617.783487,E,1,15,0.96,39.8,M,-8.7,M,,*
$GNGGA,074515.00,4003.275007,N,11617.783444,E,1,15,0.96,39.8,M,-8.7,M,,*
$GNGGA,074516.00,4003.274963,N,11617.783448,E,1,15,0.96,39.8,M,-8.7,M,,*
$GNGGA,074517.00,4003.274930,N,11617.783448,E,1,15,0.96,39.8,M,-8.7,M,,*
$GNGGA,074518.00,4003.274886,N,11617.783463,E,1,15,0.96,39.8,M,-8.7,M,,*
$GNGGA,074519.00,4003.274823,N,11617.783498,E,1,15,0.96,39.8,M,-8.7,M,,*
$GNGGA,074520.00,4003.274826,N,11617.783483,E,1,15,0.96,39.8,M,-8.7,M,,*
$GNGGA,074521.00,4003.274849,N,11617.783518,E,1,15,0.96,39.8,M,-8.7,M,,*
$GNGGA,074522.00,4003.274832,N,11617.783598,E,1,15,0.96,39.8,M,-8.7,M,,*
$GNGGA,074523.00,4003.274815,N,11617.783646,E,1,15,0.96,39.8,M,-8.7,M,,*
$GNGGA,074524.00,4003.274767,N,11617.783717,E,1,15,0.96,39.8,M,-8.7,M,,*
$GNGGA,074525.00,4003.274785,N,11617.783782,E,1,15,0.96,39.8,M,-8.7,M,,*
$GNGGA,074526.00,4003.274825,N,11617.783770,E,1,15,0.96,39.8,M,-8.7,M,,*
$GNGGA,074527.00,4003.274800,N,11617.783863,E,1,15,0.96,39.8,M,-8.7,M,,*
$GNGGA,074528.00,4003.274782,N,11617.783861,E,1,15,0.96,39.8,M,-8.7,M,,*
$GNGGA,074529.00,4003.274783,N,11617.783826,E,1,15,0.96,39.8,M,-8.7,M,,*
$GNGGA,074530.00,4003.274807,N,11617.783840,E,1,15,0.96,39.8,M,-8.7,M,,*
$GNGGA,074531.00,4003.274807,N,11617.783857,E,1,15,0.96,39.8,M,-8.7,M,,*
$GNGGA,074532.00,4003.274778,N,11617.783931,E,1,15,0.96,39.8,M,-8.7,M,,*
$GNGGA,074533.00,4003.274791,N,11617.783899,E,1,15,0.96,39.8,M,-8.7,M,,*
$GNGGA,074534.00,4003.274782,N,11617.783877,E,1,15,0.96,39.8,M,-8.7,M,,*
$GNGGA,074535.00,4003.274792,N,11617.783856,E,1,15,0.96,39.8,M,-8.7,M,,*
$GNGGA,074536.00,4003.274787,N,11617.783858,E,1,15,0.96,39.8,M,-8.7,M,,*
$GNGGA,074537.00,4003.274792,N,11617.783866,E,1,15,0.96,39.8,M,-8.7,M,,*
$GNGGA,074538.00,4003.274800,N,11617.783885,E,1,15,0.96,39.8,M,-8.7,M,,*
$GNGGA,074539.00,4003.274800,N,11617.783934,E,1,15,0.96,39.8,M,-8.7,M,,*
$GNGGA,074540.00,4003.274797,N,11617.783894,E,1,15,0.96,39.8,M,-8.7,M,,*
$GNGGA,074541.00,4003.274800,N,11617.783879,E,1,15,0.96,39.8,M,-8.7,M,,*
$GNGGA,074542.00,4003.274810,N,11617.783882,E,1,15,0.96,39.8,M,-8.7,M,,*
$GNGGA,074543.00,4003.274826,N,11617.783871,E,1,15,0.96,39.8,M,-8.7,M,,*
$GNGGA,074544.00,4003.274814,N,11617.783893,E,1,15,0.96,39.8,M,-8.7,M,,*
$GNGGA,074545.00,4003.274823,N,11617.783871,E,1,15,0.96,39.8,M,-8.7,M,,*
$GNGGA,074546.00,4003.274802,N,11617.783849,E,1,15,0.96,39.8,M,-8.7,M,,*
$GNGGA,074547.00,4003.274811,N,11617.783821,E,1,15,0.96,39.8,M,-8.7,M,,*
$GNGGA,074548.00,4003.274845,N,11617.783719,E,1,15,0.96,39.8,M,-8.7,M,,*
$GNGGA,074549.00,4003.274837,N,11617.783693,E,1,15,0.96,39.8,M,-8.7,M,,*
$GNGGA,074550.00,4003.274856,N,11617.783665,E,1,15,0.96,39.8,M,-8.7,M,,*
$GNGGA,074551.00,4003.274852,N,11617.783620,E,1,15,0.96,39.8,M,-8.7,M,,*
$GNGGA,074552.00,4003.274843,N,11617.783583,E,1,15,0.96,39.8,M,-8.7,M,,*
$GNGGA,074553.00,4003.274851,N,11617.783532,E,1,15,0.96,39.8,M,-8.7,M,,*
$GNGGA,074554.00,4003.274834,N,11617.783497,E,1,15,0.96,39.8,M,-8.7,M,,*
$GNGGA,074555.00,4003.274858,N,11617.783491,E,1,15,0.96,39.8,M,-8.7,M,,*
$GNGGA,074556.00,4003.274855,N,11617.783476,E,1,15,0.96,39.8,M,-8.7,M,,*
$GNGGA,074557.00,4003.274862,N,11617.783448,E,1,15,0.96,39.8,M,-8.7,M,,*
$GNGGA,074558.00,4003.274859,N,11617.783439,E,1,15,0.96,39.8,M,-8.7,M,,*
$GNGGA,074559.00,4003.274837,N,11617.783399,E,1,15,0.96,39.8,M,-8.7,M,,*
$GNGGA,074600.00,4003.274845,N,11617.783362,E,1,15,0.96,39.8,M,-8.7,M,,*
$GNGGA,074601.00,4003.274843,N,11617.783322,E,1,15,0.96,39.8,M,-8.7,M,,*
$GNGGA,074602.00,4003.274838,N,11617.783321,E,1,15,0.96,39.8,M,-8.7,M,,*
$GNGGA,074603.00,4003.274834,N,11617.783300,E,1,15,0.96,39.8,M,-8.7,M,,*
$GNGGA,074604.00,4003.274837,N,11617.783289,E,1,15,0.96,39.8,M,-8.7,M,,*
$GNGGA,074605.00,4003.274825,N,11617.783296,E,1,15,0.96,39.8,M,-8.7,M,,*
$GNGGA,074606.00,4003.274827,N,11617.783282,E,1,15,0.96,39.8,M,-8.7,M,,*
$GNGGA,074607.00,4003.274824,N,11617.783300,E,1,15,0.96,39.8,M,-8.7,M,,*
$GNGGA,074608.00,4003.274824,N,11617.783274,E,1,15,0.96,39.8,M,-8.7,M,,*
$GNGGA,074609.00,4003.274825,N,11617.783271,E,1,15,0.96,39.8,M,-8.7,M,,*
$GNGGA,074610.00,4003.274837,N,11617.783261,E,1,15,0.96,39.8,M,-8.7,M,,*
$GNGGA,074611.00,4003.274836,N,11617.783246,E,1,15,0.96,39.8,M,-8.7,M,,*
$GNGGA,074612.00,4003.274848,N,11617.783223,E,1,15,0.96,39.8,M,-8.7,M,,*
$GNGGA,074613.00,4003.274851,N,11617.783209,E,1,15,0.96,39.8,M,-8.7,M,,*
$GNGGA,074614.00,4003.274867,N,11617.783203,E,1,15,0.96,39.8,M,-8.7,M,,*
